[
	{
		"lat": 51.81014633178711,
		"long": -91.24763488769531,
		"name": "Ancient Fire Elemental"
	},
	{
		"lat": 0,
		"long": -80,
		"name": "GentleWhale"
	},
	{
		"lat": 12.767420768737793,
		"long": -91.59770965576172,
		"name": "Sentinel"
	},
	{
		"lat": 12.199399948120117,
		"long": -91.59770965576172,
		"name": "Sentinel"
	},
	{
		"lat": 12.199399948120117,
		"long": -91.93125915527344,
		"name": "Sentinel"
	},
	{
		"lat": 12.767420768737793,
		"long": -91.93125915527344,
		"name": "Sentinel"
	},
	{
		"lat": 13.422900199890137,
		"long": -29.573213577270508,
		"name": "Buwaya"
	},
	{
		"lat": -51.73469924926758,
		"long": -28.519142150878906,
		"name": "Elder Rock Elemental"
	},
	{
		"lat": 80,
		"long": 0,
		"name": "GiantSquid"
	},
	{
		"lat": 53.30113220214844,
		"long": -11.180977821350098,
		"name": "Kekeda"
	},
	{
		"lat": 53.66032791137695,
		"long": -11.203778266906738,
		"name": "Kekeda"
	},
	{
		"lat": 66.50205993652344,
		"long": 28.4830265045166,
		"name": "Crystal Scoripion "
	},
	{
		"lat": 80,
		"long": 40,
		"name": "GiantSquid"
	},
	{
		"lat": -40,
		"long": 40,
		"name": "GiantSquid"
	},
	{
		"lat": -51.78951644897461,
		"long": 53.50379943847656,
		"name": "Hydra"
	},
	{
		"lat": -53.12061309814453,
		"long": 53.47608184814453,
		"name": "Hydra"
	},
	{
		"lat": -52.15536880493164,
		"long": 52.760498046875,
		"name": "Hydra"
	},
	{
		"lat": -51.517398834228516,
		"long": 54.29548645019531,
		"name": "Hydra"
	},
	{
		"lat": 12.937156677246094,
		"long": 65.60322570800781,
		"name": "Drake"
	},
	{
		"lat": 13.557571411132812,
		"long": 66.57682800292969,
		"name": "Drake"
	},
	{
		"lat": 12.22062873840332,
		"long": 67.22443389892578,
		"name": "Drake"
	},
	{
		"lat": 12.474599838256836,
		"long": 66.519287109375,
		"name": "Drake"
	},
	{
		"lat": 0,
		"long": 80,
		"name": "MeanWhale"
	},
	{
		"lat": -12.314800262451172,
		"long": 93.27906036376953,
		"name": "Yeti"
	},
	{
		"lat": -25.54564094543457,
		"long": 68.8690414428711,
		"name": "Eber"
	},
	{
		"lat": -24.43465805053711,
		"long": 67.98026275634766,
		"name": "Eber"
	},
	{
		"lat": -24.944700241088867,
		"long": 67.76815795898438,
		"name": "Eber"
	},
	{
		"lat": -24.712400436401367,
		"long": 65.9804916381836,
		"name": "Eber"
	}
]